{
  "total": 5,
  "records": {
    "Account": [
      {
        "attributes": {
          "type": "Account",
          "url": "/services/data/v50.0/sobjects/Account/0013O00000JuxfPQAR"
        },
        "Name": "Enclude",
        "Phone": "+353838878035",
        "External_Id__c": "FC:0013O00000JuxfP",
        "BillingAddress": {
          "city": "Drumcondra",
          "country": "Ireland",
          "geocodeAccuracy": null,
          "latitude": null,
          "longitude": null,
          "postalCode": "D09 T6P7",
          "state": "Dublin",
          "street": "Drumcondra Business Centre, 120 Drumcondra Rd Upper"
        },
        "Accept_Chill__c": "true",
        "Id": "0013O00000JuxfPQAR"
      },
      {
        "attributes": {
          "type": "Account",
          "url": "/services/data/v50.0/sobjects/Account/0013O00000Iop2GQAR"
        },
        "Name": "New Donor",
        "Phone": "+353838878035",
        "External_Id__c": "FC:0013O00000Iop2G",
        "BillingAddress": {
          "city": "Area",
          "country": "Country",
          "geocodeAccuracy": null,
          "latitude": null,
          "longitude": null,
          "postalCode": "PC",
          "state": "City",
          "street": "Street"
        },
        "Id": "0013O00000Iop2GQAR"
      }
    ],
    "Contact": [
      {
        "attributes": {
          "type": "Contact",
          "url": "/services/data/v50.0/sobjects/Contact/0033O00000KKRXeQAP"
        },
        "Name": "Brandon DeMatteis",
        "Phone": "+353838878035",
        "MobilePhone": "+353838878035",
        "Email": "brandon.dematteis@enclude.ie",
        "Id": "0033O00000KKRXeQAP"
      }
    ],
    "Lead": [
      {
        "attributes": {
          "type": "Lead",
          "url": "/services/data/v50.0/sobjects/Lead/00Q3O0000026yx2UAA"
        },
        "Name": "Brandon DeMatteis",
        "Phone": "838878035",
        "MobilePhone": "838878035",
        "Company": "Enclude",
        "Id": "00Q3O0000026yx2UAA"
      }
    ],
    "Case": [
      {
        "attributes": {
          "type": "Case",
          "url": "/services/data/v50.0/sobjects/Case/5003O000004rIl7QAE"
        },
        "Id": "5003O000004rIl7QAE",
        "CaseNumber": "00001063",
        "ContactId": "0033O00000KKRXeQAP",
        "ContactPhone": "+353838878035",
        "Contact": {
          "attributes": {
            "type": "Contact",
            "url": "/services/data/v50.0/sobjects/Contact/0033O00000KKRXeQAP"
          },
          "Id": "0033O00000KKRXeQAP",
          "Name": "Brandon DeMatteis"
        }
      }
    ]
  }
}
